[
    { 
        "id": 1,
        "name": "Altunizade",
        "description": "Altunizade Şubesi - İstanbul",
        "lat": 41.0242,
        "lng": 29.0400
    },
    { 
        "id": 2,
        "name": "Nevçarşı Üsküdar AVM",
        "description": "Üsküdar Nevçarşı AVM Şubesi - İstanbul",
        "lat": 41.0260,
        "lng": 29.0340
    },
    { 
        "id": 3,
        "name": "Emaar Square",
        "description": "Emaar Square AVM - İstanbul",
        "lat": 41.0078,
        "lng": 29.0731
    },
    { 
        "id": 4,
        "name": "Çengelköy Park",
        "description": "Çengelköy Park AVM - İstanbul",
        "lat": 41.0542,
        "lng": 29.0655
    },
    { 
        "id": 5,
        "name": "Muhsin Yazıcıoğlu Kapalı Spor Salonu",
        "description": "Muhsin Yazıcıoğlu Kapalı Spor Salonu - İstanbul",
        "lat": 41.0014,
        "lng": 29.0718
    }
]
